[
    {
        "id": "TRIPLEO",
        "name": "Triple O's",
        "currentCongestion": "busy",
        "estimatedWaitTime": "15 mins",
        "latitude": 49.251341536117295,
        "longitude": -123.00132452944773,
        "image": "delicious-burger-studio.jpg",
        "lastUpdated": null
    },
    {
        "id": "TIMS",
        "name": "Tim Hortons",
        "currentCongestion": "normal",
        "estimatedWaitTime": "10 mins",
        "latitude": 49.25049944625801, 
        "longitude": -123.00156487469584,
        "image": "cup-coffee-with-bun.jpg",
        "lastUpdated": null 
    },
    {
        "id": "STARBUCKS",
        "name": "Starbucks",
        "currentCongestion": "none",
        "estimatedWaitTime": "5 mins",
        "latitude": 49.251234248014825, 
        "longitude": -123.00062239203007,
        "image": "starbucks-logo.jpg",
        "lastUpdated": null

    },
    {
        "id": "THESTAND",
        "name": "The Stand",
        "currentCongestion": "busy",
        "estimatedWaitTime": "15 mins",
        "latitude": 49.2504055035962,
        "longitude": -123.00169510790387,
        "image": "BCIT_logo.png",
        "lastUpdated": null
     },
     {
        "id": "HABITAT",
        "name": "The Habitat Pub",
        "currentCongestion": "normal",
        "estimatedWaitTime": "10 mins",
        "latitude": 49.251540736250746,
        "longitude": -123.00174789753335,
        "image": "HabitatPub.jpg",
        "lastUpdated": null
     }
]